[
  {
    "address": "138 Abbott Rd, North Curl Curl NSW 2099",
    "approved": true,
    "busyness": 1,
    "latitude": -33.7628349968106,
    "longitude": 151.28128425397367,
    "name": "Manly Selective 'Hospital'"
  },
  {
    "address": "105 Frenchs Forest Rd W, Frenchs Forest NSW 2086",
    "approved": true,
    "busyness": 9,
    "latitude": -33.751139032102266,
    "longitude": 151.23303522504852,
    "name": "Northern Beaches Hospital"
  },
  {
    "address": "320-346 Barker St, Randwick NSW 2031",
    "approved": true,
    "busyness": 9,
    "latitude": -33.91891092007177,
    "longitude": 151.2385557531524,
    "name": "Prince of Wales Hospital"
  },
  {
    "address": "50 Missenden Rd, Camperdown NSW 2050",
    "approved": true,
    "busyness": 9,
    "latitude": -33.88902100636632,
    "longitude": 151.18486084523238,
    "name": "Royal Prince Alfred Hospital"
  },
  {
    "address": "High St, Randwick NSW 2031",
    "approved": true,
    "busyness": 9,
    "latitude": -33.91730419629362,
    "longitude": 151.23855717032063,
    "name": "Sydney Children's Hospital, Randwick"
  },
  {
    "address": "INFINITY by Crown, Shop 108/305 Botany Rd, Zetland NSW 2017",
    "approved": true,
    "busyness": 9,
    "latitude": -33.9054613897118,
    "longitude": 151.2035456556594,
    "name": "Infinity Health Medical Centre Green Square"
  },
  {
    "address": "406 Victoria St, Darlinghurst NSW 2010",
    "approved": true,
    "busyness": 9,
    "latitude": -33.88048537283803,
    "longitude": 151.21964619345286,
    "name": "St Vincent's Private Hospital Sydney"
  },
  {
    "address": "429 Booth St, Balmain NSW 2041",
    "approved": true,
    "busyness": 6,
    "latitude": -33.85768601533598,
    "longitude": 151.18063549508773,
    "name": "St Vincent's Private Hospital Sydney"
  },
  {
    "address": "Reserve Rd, St Leonards NSW 2065",
    "approved": true,
    "busyness": 6,
    "latitude": -33.82016285732279,
    "longitude": 151.19134539914563,
    "name": "Royal North Shore Hospital"
  },
  {
    "address": "263 Hargrave Rd, Auburn NSW 2144",
    "approved": true,
    "busyness": 8,
    "latitude": -33.85815705037343,
    "longitude": 151.03534430926777,
    "name": "Auburn Hospital"
  },
  {
    "address": "Wicks Rd, North Ryde NSW 2113",
    "approved": true,
    "busyness": 8,
    "latitude": -33.794909390640036,
    "longitude": 151.12157299170582,
    "name": "Macquarie Hospital"
  },
  {
    "address": "Eldridge Rd, Bankstown NSW 2200",
    "approved": true,
    "busyness": 8,
    "latitude": -33.92240036886947,
    "longitude": 151.01718095368983,
    "name": "Bankstown-Lidcombe Hospital"
  },
  {
    "address": "Polding St & Prairie Vale Road, Prairiewood NSW 2176",
    "approved": true,
    "busyness": 9,
    "latitude": -33.855822747097335,
    "longitude": 150.90630593964678,
    "name": "Fairfield Hospital"
  }
]